{"version": 0.6, "generator": "Overpass API 0.7.62.10 2d4cfc48", "osm3s": {"timestamp_osm_base": "2026-03-08T21:30:00Z", "copyright": "The data included in this document is from www.openstreetmap.org. The data is made available under ODbL."}, "elements": [{"type": "node", "id": 602137131, "lat": 36.255206, "lon": -112.697854, "tags": {"height": "28", "name": "Havasu Falls", "tourism": "attraction", "waterway": "waterfall", "wikidata": "Q5683183", "wikipedia": "en:Havasu Falls"}}, {"type": "node", "id": 1844425810, "lat": 36.2567061, "lon": -112.700962, "tags": {"access": "permit", "alt_name": "Havasupai Campground", "capacity": "200", "fee": "yes", "name": "Havasu Campground", "operator": "Havasupai Tribe", "tourism": "camp_site"}}, {"type": "node", "id": 1928567298, "lat": 36.3962208, "lon": -112.4584845, "tags": {"fcode": "45800", "gnis:feature_id": "12445", "name": "Thunder Spring", "natural": "spring", "source": "NHD", "tourism": "attraction", "wikidata": "Q49737875"}}, {"type": "node", "id": 1933933021, "lat": 36.3562471, "lon": -112.3570854, "tags": {"name": "Fire Point", "tourism": "viewpoint"}}, {"type": "node", "id": 2244871121, "lat": 36.4622319, "lon": -112.4843055, "tags": {"access": "yes", "internet_access": "no", "name": "Indian Hollow Campground", "operator": "USDA Forest Service", "reservation": "no", "tourism": "camp_site"}}, {"type": "node", "id": 2390271598, "lat": 36.262916, "lon": -112.7093055, "tags": {"name": "Mooney Falls", "tourism": "viewpoint"}}, {"type": "node", "id": 2390275948, "lat": 36.2557849, "lon": -112.6984526, "tags": {"name": "Havasu Falls", "tourism": "viewpoint"}}, {"type": "node", "id": 2902057373, "lat": 36.5852115, "lon": -112.5471468}, {"type": "node", "id": 2902057374, "lat": 36.5851981, "lon": -112.5470937}, {"type": "node", "id": 2902057375, "lat": 36.5851229, "lon": -112.5471232}, {"type": "node", "id": 2902057376, "lat": 36.5851364, "lon": -112.5471762}, {"type": "node", "id": 4386444289, "lat": 36.4275195, "lon": -112.4035258, "tags": {"addr:street": "NF-292B", "backcountry": "yes", "name": "Crazy Jug Vista Campground", "name:en": "Crazy Jug Vista Campground", "name:fr": "CRACY JUG. Camping sauvage.", "tourism": "camp_site"}}, {"type": "node", "id": 4425694076, "lat": 36.2357691, "lon": -112.6881717, "tags": {"information": "office", "source": "survey", "tourism": "information"}}, {"type": "node", "id": 4425694086, "lat": 36.2466591, "lon": -112.6999841, "tags": {"tourism": "viewpoint"}}, {"type": "node", "id": 5455599127, "lat": 36.3710987, "lon": -112.468997, "tags": {"access": "yes", "backcountry": "yes", "camp_site": "basic", "fee": "yes", "internet_access": "no", "name": "Lower Tapeats Campsite", "operator": "National Park Service", "reservation": "required", "tourism": "camp_site"}}, {"type": "node", "id": 5455599128, "lat": 36.3904223, "lon": -112.4527596, "tags": {"access": "yes", "backcountry": "yes", "camp_site": "basic", "fee": "yes", "internet_access": "no", "name": "Upper Tapeats Campsite", "operator": "National Park Service", "reservation": "required", "tourism": "camp_site"}}, {"type": "node", "id": 5471929098, "lat": 36.2511389, "lon": -112.3399177, "tags": {"backcountry": "yes", "name": "Shinumo Camp", "tourism": "camp_site"}}, {"type": "node", "id": 5612658155, "lat": 36.3122222, "lon": -112.3511111, "tags": {"ele": "1581", "gnis:feature_id": "2647698", "name": "Natural Bridge", "tourism": "attraction"}}, {"type": "node", "id": 5612658170, "lat": 36.3799826, "lon": -112.5810209, "tags": {"ele": "1110", "gnis:feature_id": "6676", "name": "Keyhole Natural Bridge", "natural": "rock", "tourism": "attraction"}}, {"type": "node", "id": 6886918196, "lat": 36.3954698, "lon": -112.5054473, "tags": {"access": "yes", "fee": "yes", "internet_access": "no", "name": "Deer Creek Campsite", "operator": "National Park Service", "reservation": "required", "tourism": "camp_site"}}, {"type": "node", "id": 7409162021, "lat": 36.5392604, "lon": -112.5834596, "tags": {"information": "guidepost", "tourism": "information"}}, {"type": "node", "id": 7409162624, "lat": 36.5908839, "lon": -112.623328, "tags": {"information": "guidepost", "source": "survey", "tourism": "information"}}, {"type": "node", "id": 12187161633, "lat": 36.3890207, "lon": -112.508485, "tags": {"name": "Deer Creek Falls Viewpoint", "tourism": "viewpoint"}}, {"type": "node", "id": 12800910922, "lat": 36.3689877, "lon": -112.466346, "tags": {"backcountry": "yes", "camp_site": "basic", "caravans": "no", "fee": "yes", "name": "Racetrack Campsite", "operator": "National Park Service", "static_caravans": "no", "tents": "yes", "tourism": "camp_site"}}, {"type": "node", "id": 12800910923, "lat": 36.363511, "lon": -112.4618611, "tags": {"backcountry": "yes", "camp_site": "basic", "caravans": "no", "fee": "yes", "name": "Talking Heads Campsite", "operator": "National Park Service", "static_caravans": "no", "tents": "yes", "tourism": "camp_site"}}, {"type": "way", "id": 286524140, "nodes": [2902057373, 2902057374, 2902057375, 2902057376, 2902057373], "tags": {"building": "cabin", "name": "Jumpup Cabin", "tourism": "alpine_hut", "website": "https://www.recreation.gov/camping/campgrounds/251825"}}]}